[
	{
		"Name": "Erwin Electrical Services",
		"PhoneNumber": "(413) 218-1027",
		"Address": "53 Westwood Dr, Westfield, MA 01085",
		"YearinBusiness": "YEARS\r\nIN BUSINESS",
		"Longtitude": "-72.79396",
		"Latitude": "42.12517"
	},
	{
		"Name": "Bob Mahoney Electric",
		"PhoneNumber": "(617) 981-7590",
		"Address": "Lakeville, MA 02347",
		"YearinBusiness": "YEARS\r\nIN BUSINESS",
		"Longtitude": "",
		"Latitude": ""
	},
	{
		"Name": "TL Electric",
		"PhoneNumber": "(617) 440-4870",
		"Address": "Serving the Boston area.",
		"YearinBusiness": "YEARS\r\nIN BUSINESS",
		"Longtitude": "",
		"Latitude": ""
	},
	{
		"Name": "Bob Mahoney Electric",
		"PhoneNumber": "(617) 981-7590",
		"Address": "",
		"YearinBusiness": "YEARS\r\nIN BUSINESS",
		"Longtitude": "",
		"Latitude": ""
	},
	{
		"Name": "TL Electric",
		"PhoneNumber": "(617) 440-4870",
		"Address": "",
		"YearinBusiness": "YEARS\r\nIN BUSINESS",
		"Longtitude": "",
		"Latitude": ""
	},
	{
		"Name": "Erwin Electrical Services",
		"PhoneNumber": "(413) 218-1027",
		"Address": "",
		"YearinBusiness": "YEARS\r\nIN BUSINESS",
		"Longtitude": "",
		"Latitude": ""
	},
	{
		"Name": "Waran Electrical Technologies",
		"PhoneNumber": "(781) 352-3266",
		"Address": "",
		"YearinBusiness": "",
		"Longtitude": "",
		"Latitude": ""
	},
	{
		"Name": "5 Hills Electric",
		"PhoneNumber": "(781) 499-6967",
		"Address": "",
		"YearinBusiness": "YEARS\r\nIN BUSINESS",
		"Longtitude": "-71.12384",
		"Latitude": "42.40347"
	},
	{
		"Name": "A-1 Dependable Electric",
		"PhoneNumber": "(774) 360-8234",
		"Address": "",
		"YearinBusiness": "YEARS\r\nIN BUSINESS",
		"Longtitude": "-71.11172",
		"Latitude": "42.25011"
	},
	{
		"Name": "CircuitMan Electric Inc.",
		"PhoneNumber": "(508) 699-2799",
		"Address": "",
		"YearinBusiness": "YEARS\r\nIN BUSINESS",
		"Longtitude": "",
		"Latitude": ""
	},
	{
		"Name": "Delta Electric",
		"PhoneNumber": "(508) 744-3393",
		"Address": "",
		"YearinBusiness": "YEARS\r\nIN BUSINESS",
		"Longtitude": "",
		"Latitude": ""
	},
	{
		"Name": "Affordable Electrical",
		"PhoneNumber": "(781) 355-6089",
		"Address": "",
		"YearinBusiness": "YEARS\r\nIN BUSINESS",
		"Longtitude": "",
		"Latitude": ""
	},
	{
		"Name": "Bryan Cerullo Master Electrician",
		"PhoneNumber": "(978) 496-8795",
		"Address": "",
		"YearinBusiness": "",
		"Longtitude": "",
		"Latitude": ""
	},
	{
		"Name": "Hancock Electric Motor Service Inc",
		"PhoneNumber": "(617) 472-5789",
		"Address": "",
		"YearinBusiness": "YEARS\r\nIN BUSINESS",
		"Latitude": "42.24757"
	},
	{
		"Name": "Electrical Engineering & Services Company",
		"PhoneNumber": "(781) 767-9988",
		"Address": "",
		"YearinBusiness": "YEARS\r\nIN BUSINESS",
		"Longtitude": "-71.02058",
		"Latitude": "42.16549"
	},
	{
		"Name": "Steeves W L Inc Electrician",
		"PhoneNumber": "(617) 830-6664",
		"Address": "",
		"YearinBusiness": "YEARS\r\nIN BUSINESS",
		"Longtitude": "-71.12164",
		"Latitude": "42.33571"
	},
	{
		"Name": "America's Same Day Service",
		"PhoneNumber": "(800) 870-0193",
		"Address": "",
		"YearinBusiness": "YEARS\r\nIN BUSINESS",
		"Longtitude": "",
		"Latitude": ""
	},
	{
		"Name": "New England Safety Systems",
		"PhoneNumber": "(508) 880-2545",
		"Address": "",
		"YearinBusiness": "YEARS\r\nIN BUSINESS",
		"Longtitude": "-70.98924",
		"Latitude": "41.90431"
	},
	{
		"Name": "Steven M Parker Electric",
		"PhoneNumber": "(978) 360-9592",
		"Address": "",
		"YearinBusiness": "YEARS\r\nIN BUSINESS",
		"Longtitude": "-71.03722",
		"Latitude": "42.76295"
	},
	{
		"Name": "Boston MA Electrician",
		"PhoneNumber": "(888) 703-6534",
		"Address": "",
		"YearinBusiness": "",
		"Longtitude": "",
		"Latitude": ""
	},
	{
		"Name": "General Electric",
		"PhoneNumber": "(617) 443-3000",
		"Address": "",
		"YearinBusiness": "YEARS\r\nIN BUSINESS",
		"Longtitude": "",
		"Latitude": ""
	},
	{
		"Name": "Electrician Boston MA",
		"PhoneNumber": "(617) 826-5988",
		"Address": "",
		"YearinBusiness": "",
		"Longtitude": "",
		"Latitude": ""
	},
	{
		"Name": "Electrician Service In Roxbury Crossing MA",
		"PhoneNumber": "(617) 826-5988",
		"Address": "",
		"YearinBusiness": "YEARS\r\nIN BUSINESS",
		"Longtitude": "",
		"Latitude": ""
	},
	{
		"Name": "Exelon",
		"PhoneNumber": "(617) 247-3897",
		"Address": "",
		"YearinBusiness": "",
		"Longtitude": "",
		"Latitude": ""
	},
	{
		"Name": "Emergency Electrician of Boston MA",
		"PhoneNumber": "(978) 274-7169",
		"Address": "",
		"YearinBusiness": "",
		"Longtitude": "",
		"Latitude": ""
	},
	{
		"Name": "Electric Contractors Boston MA",
		"PhoneNumber": "(781) 222-2991",
		"Address": "",
		"YearinBusiness": "YEARS\r\nIN BUSINESS",
		"Longtitude": "",
		"Latitude": ""
	},
	{
		"Name": "Local Electrician in Dorchester, MA",
		"PhoneNumber": "(203) 813-5411",
		"Address": "",
		"YearinBusiness": "",
		"Longtitude": "",
		"Latitude": ""
	},
	{
		"Name": "Electrical Specialists Services",
		"PhoneNumber": "(617) 213-2893",
		"Address": "",
		"YearinBusiness": "YEARS\r\nIN BUSINESS",
		"Longtitude": "",
		"Latitude": ""
	},
	{
		"Name": "Emergency Electrician of Boston MA Paul",
		"PhoneNumber": "(215) 795-5698",
		"Address": "",
		"YearinBusiness": "",
		"Longtitude": "",
		"Latitude": ""
	},
	{
		"Name": "CODISPOTI ELECTRIC",
		"PhoneNumber": "(781) 521-7370",
		"Address": "",
		"YearinBusiness": "",
		"Longtitude": "",
		"Latitude": ""
	},
	{
		"Name": "Allston Electricians",
		"PhoneNumber": "(617) 415-7552",
		"Address": "",
		"YearinBusiness": "YEARS\r\nIN BUSINESS",
		"Longtitude": "",
		"Latitude": ""
	},
	{
		"Name": "Morgan",
		"PhoneNumber": "(617) 415-7664",
		"Address": "",
		"YearinBusiness": "YEARS\r\nIN BUSINESS",
		"Longtitude": "",
		"Latitude": ""
	},
	{
		"Name": "Brighton Electrical Services",
		"PhoneNumber": "(617) 213-2865",
		"Address": "",
		"YearinBusiness": "YEARS\r\nIN BUSINESS",
		"Longtitude": "",
		"Latitude": ""
	},
	{
		"Name": "Erwin Electrical Services",
		"PhoneNumber": "(413) 218-1027",
		"Address": "53 Westwood Dr, Westfield, MA 01085",
		"YearinBusiness": "YEARS\r\nIN BUSINESS",
		"Longtitude": "-72.79396",
		"Latitude": "42.12517"
	},
	{
		"Name": "Bob Mahoney Electric",
		"PhoneNumber": "(617) 981-7590",
		"Address": "Lakeville, MA 02347",
		"YearinBusiness": "YEARS\r\nIN BUSINESS",
		"Longtitude": "",
		"Latitude": ""
	},
	{
		"Name": "TL Electric",
		"PhoneNumber": "(617) 440-4870",
		"Address": "Serving the Boston area.",
		"YearinBusiness": "YEARS\r\nIN BUSINESS",
		"Longtitude": "",
		"Latitude": ""
	},
	{
		"Name": "Bob Mahoney Electric",
		"PhoneNumber": "(617) 981-7590",
		"Address": "",
		"YearinBusiness": "YEARS\r\nIN BUSINESS",
		"Longtitude": "",
		"Latitude": ""
	},
	{
		"Name": "TL Electric",
		"PhoneNumber": "(617) 440-4870",
		"Address": "",
		"YearinBusiness": "YEARS\r\nIN BUSINESS",
		"Longtitude": "",
		"Latitude": ""
	},
	{
		"Name": "Erwin Electrical Services",
		"PhoneNumber": "(413) 218-1027",
		"Address": "",
		"YearinBusiness": "YEARS\r\nIN BUSINESS",
		"Longtitude": "",
		"Latitude": ""
	},
	{
		"Name": "Waran Electrical Technologies",
		"PhoneNumber": "(781) 352-3266",
		"Address": "",
		"YearinBusiness": "",
		"Longtitude": "",
		"Latitude": ""
	},
	{
		"Name": "5 Hills Electric",
		"PhoneNumber": "(781) 499-6967",
		"Address": "",
		"YearinBusiness": "YEARS\r\nIN BUSINESS",
		"Longtitude": "-71.12384",
		"Latitude": "42.40347"
	},
	{
		"Name": "A-1 Dependable Electric",
		"PhoneNumber": "(774) 360-8234",
		"Address": "",
		"YearinBusiness": "YEARS\r\nIN BUSINESS",
		"Longtitude": "-71.11172",
		"Latitude": "42.25011"
	},
	{
		"Name": "CircuitMan Electric Inc.",
		"PhoneNumber": "(508) 699-2799",
		"Address": "",
		"YearinBusiness": "YEARS\r\nIN BUSINESS",
		"Longtitude": "",
		"Latitude": ""
	},
	{
		"Name": "Delta Electric",
		"PhoneNumber": "(508) 744-3393",
		"Address": "",
		"YearinBusiness": "YEARS\r\nIN BUSINESS",
		"Longtitude": "",
		"Latitude": ""
	},
	{
		"Name": "Affordable Electrical",
		"PhoneNumber": "(781) 355-6089",
		"Address": "",
		"YearinBusiness": "YEARS\r\nIN BUSINESS",
		"Longtitude": "",
		"Latitude": ""
	},
	{
		"Name": "Bryan Cerullo Master Electrician",
		"PhoneNumber": "(978) 496-8795",
		"Address": "",
		"YearinBusiness": "",
		"Longtitude": "",
		"Latitude": ""
	},
	{
		"Name": "Hancock Electric Motor Service Inc",
		"PhoneNumber": "(617) 472-5789",
		"Address": "",
		"YearinBusiness": "YEARS\r\nIN BUSINESS",
		"Longtitude": "-71.034",
		"Latitude": "42.24757"
	},
	{
		"Name": "Electrical Engineering & Services Company",
		"PhoneNumber": "(781) 767-9988",
		"Address": "",
		"YearinBusiness": "YEARS\r\nIN BUSINESS",
		"Longtitude": "-71.02058",
		"Latitude": "42.16549"
	},
	{
		"Name": "Steeves W L Inc Electrician",
		"PhoneNumber": "(617) 830-6664",
		"Address": "",
		"YearinBusiness": "YEARS\r\nIN BUSINESS",
		"Longtitude": "-71.12164",
		"Latitude": "42.33571"
	},
	{
		"Name": "America's Same Day Service",
		"PhoneNumber": "(800) 870-0193",
		"Address": "",
		"YearinBusiness": "YEARS\r\nIN BUSINESS",
		"Longtitude": "",
		"Latitude": ""
	},
	{
		"Name": "New England Safety Systems",
		"PhoneNumber": "(508) 880-2545",
		"Address": "",
		"YearinBusiness": "YEARS\r\nIN BUSINESS",
		"Longtitude": "-70.98924",
		"Latitude": "41.90431"
	},
	{
		"Name": "Steven M Parker Electric",
		"PhoneNumber": "(978) 360-9592",
		"Address": "",
		"YearinBusiness": "YEARS\r\nIN BUSINESS",

		"Longtitude": "-71.03722",
		"Latitude": "42.76295"
	},
	{
		"Name": "Boston MA Electrician",
		"PhoneNumber": "(888) 703-6534",
		"Address": "",
		"YearinBusiness": "",
		"Longtitude": "",
		"Latitude": ""
	},
	{
		"Name": "General Electric",
		"PhoneNumber": "(617) 443-3000",
		"Address": "",
		"YearinBusiness": "YEARS\r\nIN BUSINESS",
		"Longtitude": "",
		"Latitude": ""
	},
	{
		"Name": "Electrician Boston MA",
		"PhoneNumber": "(617) 826-5988",
		"Address": "",
		"YearinBusiness": "",
		"Longtitude": "",
		"Latitude": ""
	},
	{
		"Name": "Electrician Service In Roxbury Crossing MA",
		"PhoneNumber": "(617) 826-5988",
		"Address": "",
		"YearinBusiness": "YEARS\r\nIN BUSINESS",
		"Longtitude": "",
		"Latitude": ""
	},
	{
		"Name": "Exelon",
		"PhoneNumber": "(617) 247-3897",
		"Address": "",
		"YearinBusiness": "",
		"Longtitude": "",
		"Latitude": ""
	},
	{
		"Name": "Emergency Electrician of Boston MA",
		"PhoneNumber": "(978) 274-7169",
		"Address": "",
		"YearinBusiness": "",
		"Longtitude": "",
		"Latitude": ""
	},
	{
		"Name": "Electric Contractors Boston MA",
		"PhoneNumber": "(781) 222-2991",
		"Address": "",
		"YearinBusiness": "YEARS\r\nIN BUSINESS",
		"Longtitude": "",
		"Latitude": ""
	},
	{
		"Name": "Local Electrician in Dorchester, MA",
		"PhoneNumber": "(203) 813-5411",
		"Address": "",
		"YearinBusiness": "",
		"Longtitude": "",
		"Latitude": ""
	},
	{
		"Name": "Electrical Specialists Services",
		"PhoneNumber": "(617) 213-2893",
		"Address": "",
		"YearinBusiness": "YEARS\r\nIN BUSINESS",
		"Longtitude": "",
		"Latitude": ""
	},
	{
		"Name": "Emergency Electrician of Boston MA Paul",
		"PhoneNumber": "(215) 795-5698",
		"Address": "",
		"YearinBusiness": "",
		"Longtitude": "",
		"Latitude": ""
	},
	{
		"Name": "CODISPOTI ELECTRIC",
		"PhoneNumber": "(781) 521-7370",
		"Address": "",
		"YearinBusiness": "",
		"Longtitude": "",
		"Latitude": ""
	},
	{
		"Name": "Allston Electricians",
		"PhoneNumber": "(617) 415-7552",
		"Address": "",
		"YearinBusiness": "YEARS\r\nIN BUSINESS",
		"Longtitude": "",
		"Latitude": ""
	},
	{
		"Name": "Morgan",
		"PhoneNumber": "(617) 415-7664",
		"Address": "",
		"YearinBusiness": "YEARS\r\nIN BUSINESS",
		"Longtitude": "",
		"Latitude": ""
	},
	{
		"Name": "Brighton Electrical Services",
		"PhoneNumber": "(617) 213-2865",
		"Address": "",
		"YearinBusiness": "YEARS\r\nIN BUSINESS",
		"Longtitude": "",
		"Latitude": ""
	}
]
